[
  {
    "countryiso3code":"ABW",
    "year":2023,
    "gdp_current_usd":3648573136.1515498161,
    "population":107359.0,
    "id":"ABW",
    "iso2Code":"AW",
    "name":"Aruba",
    "capitalCity":"Oranjestad",
    "longitude":-70.0167,
    "latitude":12.5167,
    "region":"Latin America & Caribbean ",
    "incomeLevel":"High income",
    "gdp_per_capita":33984.7906198041
  },
  {
    "countryiso3code":"AFG",
    "year":2023,
    "gdp_current_usd":17233051620.1116981506,
    "population":41454761.0,
    "id":"AFG",
    "iso2Code":"AF",
    "name":"Afghanistan",
    "capitalCity":"Kabul",
    "longitude":69.1761,
    "latitude":34.5228,
    "region":"South Asia",
    "incomeLevel":"Low income",
    "gdp_per_capita":415.7074170591
  },
  {
    "countryiso3code":"AGO",
    "year":2023,
    "gdp_current_usd":84824654481.724899292,
    "population":36749906.0,
    "id":"AGO",
    "iso2Code":"AO",
    "name":"Angola",
    "capitalCity":"Luanda",
    "longitude":13.242,
    "latitude":-8.81155,
    "region":"Sub-Saharan Africa ",
    "incomeLevel":"Lower middle income",
    "gdp_per_capita":2308.1597673127
  },
  {
    "countryiso3code":"ALB",
    "year":2023,
    "gdp_current_usd":23547179830.4412994385,
    "population":2745972.0,
    "id":"ALB",
    "iso2Code":"AL",
    "name":"Albania",
    "capitalCity":"Tirane",
    "longitude":19.8172,
    "latitude":41.3317,
    "region":"Europe & Central Asia",
    "incomeLevel":"Upper middle income",
    "gdp_per_capita":8575.1711344622
  },
  {
    "countryiso3code":"AND",
    "year":2023,
    "gdp_current_usd":3785067331.7624998093,
    "population":80856.0,
    "id":"AND",
    "iso2Code":"AD",
    "name":"Andorra",
    "capitalCity":"Andorra la Vella",
    "longitude":1.5218,
    "latitude":42.5075,
    "region":"Europe & Central Asia",
    "incomeLevel":"High income",
    "gdp_per_capita":46812.4484486309
  },
  {
    "countryiso3code":"ARE",
    "year":2023,
    "gdp_current_usd":514130432653.0809936523,
    "population":10483751.0,
    "id":"ARE",
    "iso2Code":"AE",
    "name":"United Arab Emirates",
    "capitalCity":"Abu Dhabi",
    "longitude":54.3705,
    "latitude":24.4764,
    "region":"Middle East & North Africa",
    "incomeLevel":"High income",
    "gdp_per_capita":49040.6947525825
  },
  {
    "countryiso3code":"ARG",
    "year":2023,
    "gdp_current_usd":646075277525.125,
    "population":45538401.0,
    "id":"ARG",
    "iso2Code":"AR",
    "name":"Argentina",
    "capitalCity":"Buenos Aires",
    "longitude":-58.4173,
    "latitude":-34.6118,
    "region":"Latin America & Caribbean ",
    "incomeLevel":"Upper middle income",
    "gdp_per_capita":14187.4827252965
  },
  {
    "countryiso3code":"ARM",
    "year":2023,
    "gdp_current_usd":24085749592.335899353,
    "population":2990900.0,
    "id":"ARM",
    "iso2Code":"AM",
    "name":"Armenia",
    "capitalCity":"Yerevan",
    "longitude":44.509,
    "latitude":40.1596,
    "region":"Europe & Central Asia",
    "incomeLevel":"Upper middle income",
    "gdp_per_capita":8053.0106631234
  },
  {
    "countryiso3code":"ASM",
    "year":2023,
    "gdp_current_usd":null,
    "population":47521.0,
    "id":"ASM",
    "iso2Code":"AS",
    "name":"American Samoa",
    "capitalCity":"Pago Pago",
    "longitude":-170.691,
    "latitude":-14.2846,
    "region":"East Asia & Pacific",
    "incomeLevel":"High income",
    "gdp_per_capita":null
  },
  {
    "countryiso3code":"ATG",
    "year":2023,
    "gdp_current_usd":2033085185.1851799488,
    "population":93316.0,
    "id":"ATG",
    "iso2Code":"AG",
    "name":"Antigua and Barbuda",
    "capitalCity":"Saint John's",
    "longitude":-61.8456,
    "latitude":17.1175,
    "region":"Latin America & Caribbean ",
    "incomeLevel":"High income",
    "gdp_per_capita":21787.1017315914
  },
  {
    "countryiso3code":"AUS",
    "year":2023,
    "gdp_current_usd":1728057316695.6101074219,
    "population":26658948.0,
    "id":"AUS",
    "iso2Code":"AU",
    "name":"Australia",
    "capitalCity":"Canberra",
    "longitude":149.129,
    "latitude":-35.282,
    "region":"East Asia & Pacific",
    "incomeLevel":"High income",
    "gdp_per_capita":64820.9117890027
  },
  {
    "countryiso3code":"AUT",
    "year":2023,
    "gdp_current_usd":511685203845.0009765625,
    "population":9131761.0,
    "id":"AUT",
    "iso2Code":"AT",
    "name":"Austria",
    "capitalCity":"Vienna",
    "longitude":16.3798,
    "latitude":48.2201,
    "region":"Europe & Central Asia",
    "incomeLevel":"High income",
    "gdp_per_capita":56033.573792065
  },
  {
    "countryiso3code":"AZE",
    "year":2023,
    "gdp_current_usd":72356176470.5881958008,
    "population":10153958.0,
    "id":"AZE",
    "iso2Code":"AZ",
    "name":"Azerbaijan",
    "capitalCity":"Baku",
    "longitude":49.8932,
    "latitude":40.3834,
    "region":"Europe & Central Asia",
    "incomeLevel":"Upper middle income",
    "gdp_per_capita":7125.9085836861
  },
  {
    "countryiso3code":"BDI",
    "year":2023,
    "gdp_current_usd":2642161668.8521099091,
    "population":13689450.0,
    "id":"BDI",
    "iso2Code":"BI",
    "name":"Burundi",
    "capitalCity":"Bujumbura",
    "longitude":29.3639,
    "latitude":-3.3784,
    "region":"Sub-Saharan Africa ",
    "incomeLevel":"Low income",
    "gdp_per_capita":193.0071455648
  },
  {
    "countryiso3code":"BEL",
    "year":2023,
    "gdp_current_usd":644782756682.7559814453,
    "population":11787423.0,
    "id":"BEL",
    "iso2Code":"BE",
    "name":"Belgium",
    "capitalCity":"Brussels",
    "longitude":4.36761,
    "latitude":50.8371,
    "region":"Europe & Central Asia",
    "incomeLevel":"High income",
    "gdp_per_capita":54700.9093236712
  },
  {
    "countryiso3code":"BEN",
    "year":2023,
    "gdp_current_usd":19676049075.7010993958,
    "population":14111034.0,
    "id":"BEN",
    "iso2Code":"BJ",
    "name":"Benin",
    "capitalCity":"Porto-Novo",
    "longitude":2.6323,
    "latitude":6.4779,
    "region":"Sub-Saharan Africa ",
    "incomeLevel":"Lower middle income",
    "gdp_per_capita":1394.3733021762
  },
  {
    "countryiso3code":"BFA",
    "year":2023,
    "gdp_current_usd":20324617844.5265007019,
    "population":23025776.0,
    "id":"BFA",
    "iso2Code":"BF",
    "name":"Burkina Faso",
    "capitalCity":"Ouagadougou",
    "longitude":-1.53395,
    "latitude":12.3605,
    "region":"Sub-Saharan Africa ",
    "incomeLevel":"Low income",
    "gdp_per_capita":882.6898100862
  },
  {
    "countryiso3code":"BGD",
    "year":2023,
    "gdp_current_usd":437415331040.9940185547,
    "population":171466990.0,
    "id":"BGD",
    "iso2Code":"BD",
    "name":"Bangladesh",
    "capitalCity":"Dhaka",
    "longitude":90.4113,
    "latitude":23.7055,
    "region":"South Asia",
    "incomeLevel":"Lower middle income",
    "gdp_per_capita":2551.0177267414
  },
  {
    "countryiso3code":"BGR",
    "year":2023,
    "gdp_current_usd":102407653020.6060028076,
    "population":6446596.0,
    "id":"BGR",
    "iso2Code":"BG",
    "name":"Bulgaria",
    "capitalCity":"Sofia",
    "longitude":23.3238,
    "latitude":42.7105,
    "region":"Europe & Central Asia",
    "incomeLevel":"High income",
    "gdp_per_capita":15885.5391311331
  },
  {
    "countryiso3code":"BHR",
    "year":2023,
    "gdp_current_usd":46079867021.2766036987,
    "population":1577059.0,
    "id":"BHR",
    "iso2Code":"BH",
    "name":"Bahrain",
    "capitalCity":"Manama",
    "longitude":50.5354,
    "latitude":26.1921,
    "region":"Middle East & North Africa",
    "incomeLevel":"High income",
    "gdp_per_capita":29218.8605634137
  },
  {
    "countryiso3code":"BHS",
    "year":2023,
    "gdp_current_usd":14338500000.0,
    "population":399440.0,
    "id":"BHS",
    "iso2Code":"BS",
    "name":"Bahamas, The",
    "capitalCity":"Nassau",
    "longitude":-77.339,
    "latitude":25.0661,
    "region":"Latin America & Caribbean ",
    "incomeLevel":"High income",
    "gdp_per_capita":35896.50510715
  },
  {
    "countryiso3code":"BIH",
    "year":2023,
    "gdp_current_usd":27514782476.040599823,
    "population":3185073.0,
    "id":"BIH",
    "iso2Code":"BA",
    "name":"Bosnia and Herzegovina",
    "capitalCity":"Sarajevo",
    "longitude":18.4214,
    "latitude":43.8607,
    "region":"Europe & Central Asia",
    "incomeLevel":"Upper middle income",
    "gdp_per_capita":8638.6662020119
  },
  {
    "countryiso3code":"BLR",
    "year":2023,
    "gdp_current_usd":71857382745.6065979004,
    "population":9178298.0,
    "id":"BLR",
    "iso2Code":"BY",
    "name":"Belarus",
    "capitalCity":"Minsk",
    "longitude":27.5766,
    "latitude":53.9678,
    "region":"Europe & Central Asia",
    "incomeLevel":"Upper middle income",
    "gdp_per_capita":7829.0531366062
  },
  {
    "countryiso3code":"BLZ",
    "year":2023,
    "gdp_current_usd":3066850000.0,
    "population":411106.0,
    "id":"BLZ",
    "iso2Code":"BZ",
    "name":"Belize",
    "capitalCity":"Belmopan",
    "longitude":-88.7713,
    "latitude":17.2534,
    "region":"Latin America & Caribbean ",
    "incomeLevel":"Upper middle income",
    "gdp_per_capita":7459.9981513284
  },
  {
    "countryiso3code":"BMU",
    "year":2023,
    "gdp_current_usd":8141700000.0,
    "population":64698.0,
    "id":"BMU",
    "iso2Code":"BM",
    "name":"Bermuda",
    "capitalCity":"Hamilton",
    "longitude":-64.706,
    "latitude":32.3293,
    "region":"North America",
    "incomeLevel":"High income",
    "gdp_per_capita":125841.6025224891
  },
  {
    "countryiso3code":"BOL",
    "year":2023,
    "gdp_current_usd":45135398008.8165969849,
    "population":12244159.0,
    "id":"BOL",
    "iso2Code":"BO",
    "name":"Bolivia",
    "capitalCity":"La Paz",
    "longitude":-66.1936,
    "latitude":-13.9908,
    "region":"Latin America & Caribbean ",
    "incomeLevel":"Lower middle income",
    "gdp_per_capita":3686.2799649054
  },
  {
    "countryiso3code":"BRA",
    "year":2023,
    "gdp_current_usd":2173665655937.2700195312,
    "population":211140729.0,
    "id":"BRA",
    "iso2Code":"BR",
    "name":"Brazil",
    "capitalCity":"Brasilia",
    "longitude":-47.9292,
    "latitude":-15.7801,
    "region":"Latin America & Caribbean ",
    "incomeLevel":"Upper middle income",
    "gdp_per_capita":10294.866680778
  },
  {
    "countryiso3code":"BRB",
    "year":2023,
    "gdp_current_usd":6720733200.0,
    "population":282336.0,
    "id":"BRB",
    "iso2Code":"BB",
    "name":"Barbados",
    "capitalCity":"Bridgetown",
    "longitude":-59.6105,
    "latitude":13.0935,
    "region":"Latin America & Caribbean ",
    "incomeLevel":"High income",
    "gdp_per_capita":23804.0249914995
  },
  {
    "countryiso3code":"BRN",
    "year":2023,
    "gdp_current_usd":15128292980.8638000488,
    "population":458949.0,
    "id":"BRN",
    "iso2Code":"BN",
    "name":"Brunei Darussalam",
    "capitalCity":"Bandar Seri Begawan",
    "longitude":114.946,
    "latitude":4.94199,
    "region":"East Asia & Pacific",
    "incomeLevel":"High income",
    "gdp_per_capita":32962.9065121915
  },
  {
    "countryiso3code":"BTN",
    "year":2023,
    "gdp_current_usd":null,
    "population":786385.0,
    "id":"BTN",
    "iso2Code":"BT",
    "name":"Bhutan",
    "capitalCity":"Thimphu",
    "longitude":89.6177,
    "latitude":27.5768,
    "region":"South Asia",
    "incomeLevel":"Lower middle income",
    "gdp_per_capita":null
  },
  {
    "countryiso3code":"BWA",
    "year":2023,
    "gdp_current_usd":19396084498.0083999634,
    "population":2480244.0,
    "id":"BWA",
    "iso2Code":"BW",
    "name":"Botswana",
    "capitalCity":"Gaborone",
    "longitude":25.9201,
    "latitude":-24.6544,
    "region":"Sub-Saharan Africa ",
    "incomeLevel":"Upper middle income",
    "gdp_per_capita":7820.2324037508
  },
  {
    "countryiso3code":"CAF",
    "year":2023,
    "gdp_current_usd":2555492085.2483100891,
    "population":5152421.0,
    "id":"CAF",
    "iso2Code":"CF",
    "name":"Central African Republic",
    "capitalCity":"Bangui",
    "longitude":21.6407,
    "latitude":5.63056,
    "region":"Sub-Saharan Africa ",
    "incomeLevel":"Low income",
    "gdp_per_capita":495.9788971531
  },
  {
    "countryiso3code":"CAN",
    "year":2023,
    "gdp_current_usd":2142470914401.3601074219,
    "population":40097761.0,
    "id":"CAN",
    "iso2Code":"CA",
    "name":"Canada",
    "capitalCity":"Ottawa",
    "longitude":-75.6919,
    "latitude":45.4215,
    "region":"North America",
    "incomeLevel":"High income",
    "gdp_per_capita":53431.185706388
  },
  {
    "countryiso3code":"CHE",
    "year":2023,
    "gdp_current_usd":884940402230.4090576172,
    "population":8888093.0,
    "id":"CHE",
    "iso2Code":"CH",
    "name":"Switzerland",
    "capitalCity":"Bern",
    "longitude":7.44821,
    "latitude":46.948,
    "region":"Europe & Central Asia",
    "incomeLevel":"High income",
    "gdp_per_capita":99564.710026145
  },
  {
    "countryiso3code":"CHL",
    "year":2023,
    "gdp_current_usd":335533331669.2189941406,
    "population":19658835.0,
    "id":"CHL",
    "iso2Code":"CL",
    "name":"Chile",
    "capitalCity":"Santiago",
    "longitude":-70.6475,
    "latitude":-33.475,
    "region":"Latin America & Caribbean ",
    "incomeLevel":"High income",
    "gdp_per_capita":17067.81361506
  },
  {
    "countryiso3code":"CHN",
    "year":2023,
    "gdp_current_usd":17794783039552.0,
    "population":1410710000.0,
    "id":"CHN",
    "iso2Code":"CN",
    "name":"China",
    "capitalCity":"Beijing",
    "longitude":116.286,
    "latitude":40.0495,
    "region":"East Asia & Pacific",
    "incomeLevel":"Upper middle income",
    "gdp_per_capita":12614.0617416422
  },
  {
    "countryiso3code":"CIV",
    "year":2023,
    "gdp_current_usd":78875489245.0538024902,
    "population":31165654.0,
    "id":"CIV",
    "iso2Code":"CI",
    "name":"Cote d'Ivoire",
    "capitalCity":"Yamoussoukro",
    "longitude":-4.0305,
    "latitude":5.332,
    "region":"Sub-Saharan Africa ",
    "incomeLevel":"Lower middle income",
    "gdp_per_capita":2530.8465930172
  },
  {
    "countryiso3code":"CMR",
    "year":2023,
    "gdp_current_usd":49279410982.8259963989,
    "population":28372687.0,
    "id":"CMR",
    "iso2Code":"CM",
    "name":"Cameroon",
    "capitalCity":"Yaounde",
    "longitude":11.5174,
    "latitude":3.8721,
    "region":"Sub-Saharan Africa ",
    "incomeLevel":"Lower middle income",
    "gdp_per_capita":1736.8609107352
  },
  {
    "countryiso3code":"COD",
    "year":2023,
    "gdp_current_usd":66383287002.9867019653,
    "population":105789731.0,
    "id":"COD",
    "iso2Code":"CD",
    "name":"Congo, Dem. Rep.",
    "capitalCity":"Kinshasa",
    "longitude":15.3222,
    "latitude":-4.325,
    "region":"Sub-Saharan Africa ",
    "incomeLevel":"Low income",
    "gdp_per_capita":627.5021816908
  },
  {
    "countryiso3code":"COG",
    "year":2023,
    "gdp_current_usd":15321055822.5167007446,
    "population":6182885.0,
    "id":"COG",
    "iso2Code":"CG",
    "name":"Congo, Rep.",
    "capitalCity":"Brazzaville",
    "longitude":15.2662,
    "latitude":-4.2767,
    "region":"Sub-Saharan Africa ",
    "incomeLevel":"Lower middle income",
    "gdp_per_capita":2477.9784554487
  },
  {
    "countryiso3code":"COL",
    "year":2023,
    "gdp_current_usd":363493841244.3029785156,
    "population":52321152.0,
    "id":"COL",
    "iso2Code":"CO",
    "name":"Colombia",
    "capitalCity":"Bogota",
    "longitude":-74.082,
    "latitude":4.60987,
    "region":"Latin America & Caribbean ",
    "incomeLevel":"Upper middle income",
    "gdp_per_capita":6947.3592868197
  },
  {
    "countryiso3code":"COM",
    "year":2023,
    "gdp_current_usd":1352380971.2405500412,
    "population":850387.0,
    "id":"COM",
    "iso2Code":"KM",
    "name":"Comoros",
    "capitalCity":"Moroni",
    "longitude":43.2418,
    "latitude":-11.6986,
    "region":"Sub-Saharan Africa ",
    "incomeLevel":"Lower middle income",
    "gdp_per_capita":1590.3123768832
  },
  {
    "countryiso3code":"CPV",
    "year":2023,
    "gdp_current_usd":2533819406.4916000366,
    "population":522331.0,
    "id":"CPV",
    "iso2Code":"CV",
    "name":"Cabo Verde",
    "capitalCity":"Praia",
    "longitude":-23.5087,
    "latitude":14.9218,
    "region":"Sub-Saharan Africa ",
    "incomeLevel":"Lower middle income",
    "gdp_per_capita":4850.9841584964
  },
  {
    "countryiso3code":"CRI",
    "year":2023,
    "gdp_current_usd":86497941439.0173950195,
    "population":5105525.0,
    "id":"CRI",
    "iso2Code":"CR",
    "name":"Costa Rica",
    "capitalCity":"San Jose",
    "longitude":-84.0089,
    "latitude":9.63701,
    "region":"Latin America & Caribbean ",
    "incomeLevel":"Upper middle income",
    "gdp_per_capita":16942.0268119375
  },
  {
    "countryiso3code":"CUB",
    "year":2023,
    "gdp_current_usd":null,
    "population":11019931.0,
    "id":"CUB",
    "iso2Code":"CU",
    "name":"Cuba",
    "capitalCity":"Havana",
    "longitude":-82.3667,
    "latitude":23.1333,
    "region":"Latin America & Caribbean ",
    "incomeLevel":"Upper middle income",
    "gdp_per_capita":null
  },
  {
    "countryiso3code":"CYM",
    "year":2023,
    "gdp_current_usd":7139428557.7142295837,
    "population":73038.0,
    "id":"CYM",
    "iso2Code":"KY",
    "name":"Cayman Islands",
    "capitalCity":"George Town",
    "longitude":-81.3857,
    "latitude":19.3022,
    "region":"Latin America & Caribbean ",
    "incomeLevel":"High income",
    "gdp_per_capita":97749.5078960846
  },
  {
    "countryiso3code":"CYP",
    "year":2023,
    "gdp_current_usd":33886930712.3394012451,
    "population":1344976.0,
    "id":"CYP",
    "iso2Code":"CY",
    "name":"Cyprus",
    "capitalCity":"Nicosia",
    "longitude":33.3736,
    "latitude":35.1676,
    "region":"Europe & Central Asia",
    "incomeLevel":"High income",
    "gdp_per_capita":25195.193603707
  },
  {
    "countryiso3code":"CZE",
    "year":2023,
    "gdp_current_usd":343207874553.7340087891,
    "population":10864042.0,
    "id":"CZE",
    "iso2Code":"CZ",
    "name":"Czechia",
    "capitalCity":"Prague",
    "longitude":14.4205,
    "latitude":50.0878,
    "region":"Europe & Central Asia",
    "incomeLevel":"High income",
    "gdp_per_capita":31591.1770732968
  },
  {
    "countryiso3code":"DEU",
    "year":2023,
    "gdp_current_usd":4525703903627.5302734375,
    "population":83280000.0,
    "id":"DEU",
    "iso2Code":"DE",
    "name":"Germany",
    "capitalCity":"Berlin",
    "longitude":13.4115,
    "latitude":52.5235,
    "region":"Europe & Central Asia",
    "incomeLevel":"High income",
    "gdp_per_capita":54343.2265084958
  },
  {
    "countryiso3code":"DJI",
    "year":2023,
    "gdp_current_usd":4098530513.5577697754,
    "population":1152944.0,
    "id":"DJI",
    "iso2Code":"DJ",
    "name":"Djibouti",
    "capitalCity":"Djibouti",
    "longitude":43.1425,
    "latitude":11.5806,
    "region":"Middle East & North Africa",
    "incomeLevel":"Lower middle income",
    "gdp_per_capita":3554.8391886837
  },
  {
    "countryiso3code":"DMA",
    "year":2023,
    "gdp_current_usd":653992592.5925929546,
    "population":66510.0,
    "id":"DMA",
    "iso2Code":"DM",
    "name":"Dominica",
    "capitalCity":"Roseau",
    "longitude":-61.39,
    "latitude":15.2976,
    "region":"Latin America & Caribbean ",
    "incomeLevel":"Upper middle income",
    "gdp_per_capita":9832.9964305006
  },
  {
    "countryiso3code":"DNK",
    "year":2023,
    "gdp_current_usd":407091920305.4039916992,
    "population":5946952.0,
    "id":"DNK",
    "iso2Code":"DK",
    "name":"Denmark",
    "capitalCity":"Copenhagen",
    "longitude":12.5681,
    "latitude":55.6763,
    "region":"Europe & Central Asia",
    "incomeLevel":"High income",
    "gdp_per_capita":68453.8769281144
  },
  {
    "countryiso3code":"DOM",
    "year":2023,
    "gdp_current_usd":121444279313.9309997559,
    "population":11331265.0,
    "id":"DOM",
    "iso2Code":"DO",
    "name":"Dominican Republic",
    "capitalCity":"Santo Domingo",
    "longitude":-69.8908,
    "latitude":18.479,
    "region":"Latin America & Caribbean ",
    "incomeLevel":"Upper middle income",
    "gdp_per_capita":10717.6276712204
  },
  {
    "countryiso3code":"DZA",
    "year":2023,
    "gdp_current_usd":247626161016.4140014648,
    "population":46164219.0,
    "id":"DZA",
    "iso2Code":"DZ",
    "name":"Algeria",
    "capitalCity":"Algiers",
    "longitude":3.05097,
    "latitude":36.7397,
    "region":"Middle East & North Africa",
    "incomeLevel":"Upper middle income",
    "gdp_per_capita":5364.0279502273
  },
  {
    "countryiso3code":"ECU",
    "year":2023,
    "gdp_current_usd":118844826000.0,
    "population":17980083.0,
    "id":"ECU",
    "iso2Code":"EC",
    "name":"Ecuador",
    "capitalCity":"Quito",
    "longitude":-78.5243,
    "latitude":-0.229498,
    "region":"Latin America & Caribbean ",
    "incomeLevel":"Upper middle income",
    "gdp_per_capita":6609.8040815496
  },
  {
    "countryiso3code":"EGY",
    "year":2023,
    "gdp_current_usd":396002496996.9600219727,
    "population":114535772.0,
    "id":"EGY",
    "iso2Code":"EG",
    "name":"Egypt, Arab Rep.",
    "capitalCity":"Cairo",
    "longitude":31.2461,
    "latitude":30.0982,
    "region":"Middle East & North Africa",
    "incomeLevel":"Lower middle income",
    "gdp_per_capita":3457.4569157046
  },
  {
    "countryiso3code":"ERI",
    "year":2023,
    "gdp_current_usd":null,
    "population":3470390.0,
    "id":"ERI",
    "iso2Code":"ER",
    "name":"Eritrea",
    "capitalCity":"Asmara",
    "longitude":38.9183,
    "latitude":15.3315,
    "region":"Sub-Saharan Africa ",
    "incomeLevel":"Low income",
    "gdp_per_capita":null
  },
  {
    "countryiso3code":"ESP",
    "year":2023,
    "gdp_current_usd":1620090734956.8898925781,
    "population":48347910.0,
    "id":"ESP",
    "iso2Code":"ES",
    "name":"Spain",
    "capitalCity":"Madrid",
    "longitude":-3.70327,
    "latitude":40.4167,
    "region":"Europe & Central Asia",
    "incomeLevel":"High income",
    "gdp_per_capita":33509.0127982138
  },
  {
    "countryiso3code":"EST",
    "year":2023,
    "gdp_current_usd":41291245222.1948013306,
    "population":1370286.0,
    "id":"EST",
    "iso2Code":"EE",
    "name":"Estonia",
    "capitalCity":"Tallinn",
    "longitude":24.7586,
    "latitude":59.4392,
    "region":"Europe & Central Asia",
    "incomeLevel":"High income",
    "gdp_per_capita":30133.304450454
  },
  {
    "countryiso3code":"ETH",
    "year":2023,
    "gdp_current_usd":163697927593.9819946289,
    "population":128691692.0,
    "id":"ETH",
    "iso2Code":"ET",
    "name":"Ethiopia",
    "capitalCity":"Addis Ababa",
    "longitude":38.7468,
    "latitude":9.02274,
    "region":"Sub-Saharan Africa ",
    "incomeLevel":"Low income",
    "gdp_per_capita":1272.0162820921
  },
  {
    "countryiso3code":"FIN",
    "year":2023,
    "gdp_current_usd":295532341254.9069824219,
    "population":5583911.0,
    "id":"FIN",
    "iso2Code":"FI",
    "name":"Finland",
    "capitalCity":"Helsinki",
    "longitude":24.9525,
    "latitude":60.1608,
    "region":"Europe & Central Asia",
    "incomeLevel":"High income",
    "gdp_per_capita":52925.6897638424
  },
  {
    "countryiso3code":"FJI",
    "year":2023,
    "gdp_current_usd":5442046565.0471897125,
    "population":924145.0,
    "id":"FJI",
    "iso2Code":"FJ",
    "name":"Fiji",
    "capitalCity":"Suva",
    "longitude":178.399,
    "latitude":-18.1149,
    "region":"East Asia & Pacific",
    "incomeLevel":"Upper middle income",
    "gdp_per_capita":5888.7366863936
  },
  {
    "countryiso3code":"FRA",
    "year":2023,
    "gdp_current_usd":3051831611384.759765625,
    "population":68287487.0,
    "id":"FRA",
    "iso2Code":"FR",
    "name":"France",
    "capitalCity":"Paris",
    "longitude":2.35097,
    "latitude":48.8566,
    "region":"Europe & Central Asia",
    "incomeLevel":"High income",
    "gdp_per_capita":44690.9345395117
  },
  {
    "countryiso3code":"FRO",
    "year":2023,
    "gdp_current_usd":3907323961.3396401405,
    "population":54482.0,
    "id":"FRO",
    "iso2Code":"FO",
    "name":"Faroe Islands",
    "capitalCity":"Torshavn",
    "longitude":-6.91181,
    "latitude":61.8926,
    "region":"Europe & Central Asia",
    "incomeLevel":"High income",
    "gdp_per_capita":71717.7042204699
  },
  {
    "countryiso3code":"FSM",
    "year":2023,
    "gdp_current_usd":460000000.0,
    "population":112630.0,
    "id":"FSM",
    "iso2Code":"FM",
    "name":"Micronesia, Fed. Sts.",
    "capitalCity":"Palikir",
    "longitude":158.185,
    "latitude":6.91771,
    "region":"East Asia & Pacific",
    "incomeLevel":"Lower middle income",
    "gdp_per_capita":4084.169404244
  },
  {
    "countryiso3code":"GAB",
    "year":2023,
    "gdp_current_usd":19388402541.6697998047,
    "population":2484789.0,
    "id":"GAB",
    "iso2Code":"GA",
    "name":"Gabon",
    "capitalCity":"Libreville",
    "longitude":9.45162,
    "latitude":0.38832,
    "region":"Sub-Saharan Africa ",
    "incomeLevel":"Upper middle income",
    "gdp_per_capita":7802.8365956505
  },
  {
    "countryiso3code":"GBR",
    "year":2023,
    "gdp_current_usd":3380854520809.5400390625,
    "population":68350000.0,
    "id":"GBR",
    "iso2Code":"GB",
    "name":"United Kingdom",
    "capitalCity":"London",
    "longitude":-0.126236,
    "latitude":51.5002,
    "region":"Europe & Central Asia",
    "incomeLevel":"High income",
    "gdp_per_capita":49463.8554617343
  },
  {
    "countryiso3code":"GEO",
    "year":2023,
    "gdp_current_usd":30777833585.4440994263,
    "population":3715483.0,
    "id":"GEO",
    "iso2Code":"GE",
    "name":"Georgia",
    "capitalCity":"Tbilisi",
    "longitude":44.793,
    "latitude":41.71,
    "region":"Europe & Central Asia",
    "incomeLevel":"Upper middle income",
    "gdp_per_capita":8283.6696024296
  },
  {
    "countryiso3code":"GHA",
    "year":2023,
    "gdp_current_usd":76370396722.154006958,
    "population":33787914.0,
    "id":"GHA",
    "iso2Code":"GH",
    "name":"Ghana",
    "capitalCity":"Accra",
    "longitude":-0.20795,
    "latitude":5.57045,
    "region":"Sub-Saharan Africa ",
    "incomeLevel":"Lower middle income",
    "gdp_per_capita":2260.2874128943
  },
  {
    "countryiso3code":"GIN",
    "year":2023,
    "gdp_current_usd":22199409741.2578010559,
    "population":14405468.0,
    "id":"GIN",
    "iso2Code":"GN",
    "name":"Guinea",
    "capitalCity":"Conakry",
    "longitude":-13.7,
    "latitude":9.51667,
    "region":"Sub-Saharan Africa ",
    "incomeLevel":"Lower middle income",
    "gdp_per_capita":1541.0405091496
  },
  {
    "countryiso3code":"GMB",
    "year":2023,
    "gdp_current_usd":2396111021.6414899826,
    "population":2697845.0,
    "id":"GMB",
    "iso2Code":"GM",
    "name":"Gambia, The",
    "capitalCity":"Banjul",
    "longitude":-16.5885,
    "latitude":13.4495,
    "region":"Sub-Saharan Africa ",
    "incomeLevel":"Low income",
    "gdp_per_capita":888.1574077241
  },
  {
    "countryiso3code":"GNB",
    "year":2023,
    "gdp_current_usd":2048348108.358520031,
    "population":2153339.0,
    "id":"GNB",
    "iso2Code":"GW",
    "name":"Guinea-Bissau",
    "capitalCity":"Bissau",
    "longitude":-15.1804,
    "latitude":11.8037,
    "region":"Sub-Saharan Africa ",
    "incomeLevel":"Low income",
    "gdp_per_capita":951.2427482893
  },
  {
    "countryiso3code":"GNQ",
    "year":2023,
    "gdp_current_usd":12337550583.7539997101,
    "population":1847549.0,
    "id":"GNQ",
    "iso2Code":"GQ",
    "name":"Equatorial Guinea",
    "capitalCity":"Malabo",
    "longitude":8.7741,
    "latitude":3.7523,
    "region":"Sub-Saharan Africa ",
    "incomeLevel":"Upper middle income",
    "gdp_per_capita":6677.793435386
  },
  {
    "countryiso3code":"GRC",
    "year":2023,
    "gdp_current_usd":243498333237.8020019531,
    "population":10405588.0,
    "id":"GRC",
    "iso2Code":"GR",
    "name":"Greece",
    "capitalCity":"Athens",
    "longitude":23.7166,
    "latitude":37.9792,
    "region":"Europe & Central Asia",
    "incomeLevel":"High income",
    "gdp_per_capita":23400.7278817691
  },
  {
    "countryiso3code":"GRD",
    "year":2023,
    "gdp_current_usd":1316733333.333329916,
    "population":117081.0,
    "id":"GRD",
    "iso2Code":"GD",
    "name":"Grenada",
    "capitalCity":"Saint George's",
    "longitude":-61.7449,
    "latitude":12.0653,
    "region":"Latin America & Caribbean ",
    "incomeLevel":"Upper middle income",
    "gdp_per_capita":11246.3451228921
  },
  {
    "countryiso3code":"GRL",
    "year":2023,
    "gdp_current_usd":null,
    "population":56865.0,
    "id":"GRL",
    "iso2Code":"GL",
    "name":"Greenland",
    "capitalCity":"Nuuk",
    "longitude":-51.7214,
    "latitude":64.1836,
    "region":"Europe & Central Asia",
    "incomeLevel":"High income",
    "gdp_per_capita":null
  },
  {
    "countryiso3code":"GTM",
    "year":2023,
    "gdp_current_usd":104450210572.0119934082,
    "population":18124838.0,
    "id":"GTM",
    "iso2Code":"GT",
    "name":"Guatemala",
    "capitalCity":"Guatemala City",
    "longitude":-90.5328,
    "latitude":14.6248,
    "region":"Latin America & Caribbean ",
    "incomeLevel":"Upper middle income",
    "gdp_per_capita":5762.8217461592
  },
  {
    "countryiso3code":"GUM",
    "year":2023,
    "gdp_current_usd":null,
    "population":166506.0,
    "id":"GUM",
    "iso2Code":"GU",
    "name":"Guam",
    "capitalCity":"Agana",
    "longitude":144.794,
    "latitude":13.4443,
    "region":"East Asia & Pacific",
    "incomeLevel":"High income",
    "gdp_per_capita":null
  },
  {
    "countryiso3code":"GUY",
    "year":2023,
    "gdp_current_usd":17159509565.4675998688,
    "population":826353.0,
    "id":"GUY",
    "iso2Code":"GY",
    "name":"Guyana",
    "capitalCity":"Georgetown",
    "longitude":-58.1548,
    "latitude":6.80461,
    "region":"Latin America & Caribbean ",
    "incomeLevel":"High income",
    "gdp_per_capita":20765.3503593109
  },
  {
    "countryiso3code":"HND",
    "year":2023,
    "gdp_current_usd":34400509852.0436019897,
    "population":10644851.0,
    "id":"HND",
    "iso2Code":"HN",
    "name":"Honduras",
    "capitalCity":"Tegucigalpa",
    "longitude":-87.4667,
    "latitude":15.1333,
    "region":"Latin America & Caribbean ",
    "incomeLevel":"Lower middle income",
    "gdp_per_capita":3231.6572446194
  },
  {
    "countryiso3code":"HRV",
    "year":2023,
    "gdp_current_usd":84393795502.4420928955,
    "population":3859686.0,
    "id":"HRV",
    "iso2Code":"HR",
    "name":"Croatia",
    "capitalCity":"Zagreb",
    "longitude":15.9614,
    "latitude":45.8069,
    "region":"Europe & Central Asia",
    "incomeLevel":"High income",
    "gdp_per_capita":21865.456283864
  },
  {
    "countryiso3code":"HTI",
    "year":2023,
    "gdp_current_usd":19850829757.5418014526,
    "population":11637398.0,
    "id":"HTI",
    "iso2Code":"HT",
    "name":"Haiti",
    "capitalCity":"Port-au-Prince",
    "longitude":-72.3288,
    "latitude":18.5392,
    "region":"Latin America & Caribbean ",
    "incomeLevel":"Lower middle income",
    "gdp_per_capita":1705.7790545225
  },
  {
    "countryiso3code":"HUN",
    "year":2023,
    "gdp_current_usd":212388906458.7239990234,
    "population":9592186.0,
    "id":"HUN",
    "iso2Code":"HU",
    "name":"Hungary",
    "capitalCity":"Budapest",
    "longitude":19.0408,
    "latitude":47.4984,
    "region":"Europe & Central Asia",
    "incomeLevel":"High income",
    "gdp_per_capita":22141.8669799276
  },
  {
    "countryiso3code":"IDN",
    "year":2023,
    "gdp_current_usd":1371171152331.1599121094,
    "population":281190067.0,
    "id":"IDN",
    "iso2Code":"ID",
    "name":"Indonesia",
    "capitalCity":"Jakarta",
    "longitude":106.83,
    "latitude":-6.19752,
    "region":"East Asia & Pacific",
    "incomeLevel":"Upper middle income",
    "gdp_per_capita":4876.3143270319
  },
  {
    "countryiso3code":"IMN",
    "year":2023,
    "gdp_current_usd":null,
    "population":84165.0,
    "id":"IMN",
    "iso2Code":"IM",
    "name":"Isle of Man",
    "capitalCity":"Douglas",
    "longitude":-4.47928,
    "latitude":54.1509,
    "region":"Europe & Central Asia",
    "incomeLevel":"High income",
    "gdp_per_capita":null
  },
  {
    "countryiso3code":"IND",
    "year":2023,
    "gdp_current_usd":3567551674623.009765625,
    "population":1438069596.0,
    "id":"IND",
    "iso2Code":"IN",
    "name":"India",
    "capitalCity":"New Delhi",
    "longitude":77.225,
    "latitude":28.6353,
    "region":"South Asia",
    "incomeLevel":"Lower middle income",
    "gdp_per_capita":2480.7920872162
  },
  {
    "countryiso3code":"IRL",
    "year":2023,
    "gdp_current_usd":551394889339.7779541016,
    "population":5307600.0,
    "id":"IRL",
    "iso2Code":"IE",
    "name":"Ireland",
    "capitalCity":"Dublin",
    "longitude":-6.26749,
    "latitude":53.3441,
    "region":"Europe & Central Asia",
    "incomeLevel":"High income",
    "gdp_per_capita":103887.8003880809
  },
  {
    "countryiso3code":"IRN",
    "year":2023,
    "gdp_current_usd":404625655204.6190185547,
    "population":90608707.0,
    "id":"IRN",
    "iso2Code":"IR",
    "name":"Iran, Islamic Rep.",
    "capitalCity":"Tehran",
    "longitude":51.4447,
    "latitude":35.6878,
    "region":"Middle East & North Africa",
    "incomeLevel":"Upper middle income",
    "gdp_per_capita":4465.6376699495
  },
  {
    "countryiso3code":"IRQ",
    "year":2023,
    "gdp_current_usd":250842782139.4639892578,
    "population":45074049.0,
    "id":"IRQ",
    "iso2Code":"IQ",
    "name":"Iraq",
    "capitalCity":"Baghdad",
    "longitude":44.394,
    "latitude":33.3302,
    "region":"Middle East & North Africa",
    "incomeLevel":"Upper middle income",
    "gdp_per_capita":5565.1264464718
  },
  {
    "countryiso3code":"ISL",
    "year":2023,
    "gdp_current_usd":31325116556.3806991577,
    "population":393349.0,
    "id":"ISL",
    "iso2Code":"IS",
    "name":"Iceland",
    "capitalCity":"Reykjavik",
    "longitude":-21.8952,
    "latitude":64.1353,
    "region":"Europe & Central Asia",
    "incomeLevel":"High income",
    "gdp_per_capita":79636.9548578507
  },
  {
    "countryiso3code":"ITA",
    "year":2023,
    "gdp_current_usd":2300941152991.8100585938,
    "population":58993475.0,
    "id":"ITA",
    "iso2Code":"IT",
    "name":"Italy",
    "capitalCity":"Rome",
    "longitude":12.4823,
    "latitude":41.8955,
    "region":"Europe & Central Asia",
    "incomeLevel":"High income",
    "gdp_per_capita":39003.3160954124
  },
  {
    "countryiso3code":"JAM",
    "year":2023,
    "gdp_current_usd":19423355409.2316017151,
    "population":2839786.0,
    "id":"JAM",
    "iso2Code":"JM",
    "name":"Jamaica",
    "capitalCity":"Kingston",
    "longitude":-76.792,
    "latitude":17.9927,
    "region":"Latin America & Caribbean ",
    "incomeLevel":"Upper middle income",
    "gdp_per_capita":6839.7250388697
  },
  {
    "countryiso3code":"JOR",
    "year":2023,
    "gdp_current_usd":50967475352.112701416,
    "population":11439213.0,
    "id":"JOR",
    "iso2Code":"JO",
    "name":"Jordan",
    "capitalCity":"Amman",
    "longitude":35.9263,
    "latitude":31.9497,
    "region":"Middle East & North Africa",
    "incomeLevel":"Lower middle income",
    "gdp_per_capita":4455.5054051457
  },
  {
    "countryiso3code":"JPN",
    "year":2023,
    "gdp_current_usd":4204494802431.5498046875,
    "population":124516650.0,
    "id":"JPN",
    "iso2Code":"JP",
    "name":"Japan",
    "capitalCity":"Tokyo",
    "longitude":139.77,
    "latitude":35.67,
    "region":"East Asia & Pacific",
    "incomeLevel":"High income",
    "gdp_per_capita":33766.5268253808
  },
  {
    "countryiso3code":"KAZ",
    "year":2023,
    "gdp_current_usd":262641892078.5239868164,
    "population":20330104.0,
    "id":"KAZ",
    "iso2Code":"KZ",
    "name":"Kazakhstan",
    "capitalCity":"Astana",
    "longitude":71.4382,
    "latitude":51.1879,
    "region":"Europe & Central Asia",
    "incomeLevel":"Upper middle income",
    "gdp_per_capita":12918.8661346014
  },
  {
    "countryiso3code":"KEN",
    "year":2023,
    "gdp_current_usd":108038588970.5950012207,
    "population":55339003.0,
    "id":"KEN",
    "iso2Code":"KE",
    "name":"Kenya",
    "capitalCity":"Nairobi",
    "longitude":36.8126,
    "latitude":-1.27975,
    "region":"Sub-Saharan Africa ",
    "incomeLevel":"Lower middle income",
    "gdp_per_capita":1952.3045792964
  },
  {
    "countryiso3code":"KGZ",
    "year":2023,
    "gdp_current_usd":13987627908.8381004333,
    "population":7099750.0,
    "id":"KGZ",
    "iso2Code":"KG",
    "name":"Kyrgyz Republic",
    "capitalCity":"Bishkek",
    "longitude":74.6057,
    "latitude":42.8851,
    "region":"Europe & Central Asia",
    "incomeLevel":"Lower middle income",
    "gdp_per_capita":1970.1578096184
  },
  {
    "countryiso3code":"KHM",
    "year":2023,
    "gdp_current_usd":42335646895.7984008789,
    "population":17423880.0,
    "id":"KHM",
    "iso2Code":"KH",
    "name":"Cambodia",
    "capitalCity":"Phnom Penh",
    "longitude":104.874,
    "latitude":11.5556,
    "region":"East Asia & Pacific",
    "incomeLevel":"Lower middle income",
    "gdp_per_capita":2429.7485345284
  },
  {
    "countryiso3code":"KIR",
    "year":2023,
    "gdp_current_usd":279208903.337643981,
    "population":132530.0,
    "id":"KIR",
    "iso2Code":"KI",
    "name":"Kiribati",
    "capitalCity":"Tarawa",
    "longitude":172.979,
    "latitude":1.32905,
    "region":"East Asia & Pacific",
    "incomeLevel":"Lower middle income",
    "gdp_per_capita":2106.7600040568
  },
  {
    "countryiso3code":"KNA",
    "year":2023,
    "gdp_current_usd":1055499777.777780056,
    "population":46758.0,
    "id":"KNA",
    "iso2Code":"KN",
    "name":"St. Kitts and Nevis",
    "capitalCity":"Basseterre",
    "longitude":-62.7309,
    "latitude":17.3,
    "region":"Latin America & Caribbean ",
    "incomeLevel":"High income",
    "gdp_per_capita":22573.6724791005
  },
  {
    "countryiso3code":"KOR",
    "year":2023,
    "gdp_current_usd":1712792854202.3701171875,
    "population":51712619.0,
    "id":"KOR",
    "iso2Code":"KR",
    "name":"Korea, Rep.",
    "capitalCity":"Seoul",
    "longitude":126.957,
    "latitude":37.5323,
    "region":"East Asia & Pacific",
    "incomeLevel":"High income",
    "gdp_per_capita":33121.3712885509
  },
  {
    "countryiso3code":"KWT",
    "year":2023,
    "gdp_current_usd":163704878875.8500061035,
    "population":4853420.0,
    "id":"KWT",
    "iso2Code":"KW",
    "name":"Kuwait",
    "capitalCity":"Kuwait City",
    "longitude":47.9824,
    "latitude":29.3721,
    "region":"Middle East & North Africa",
    "incomeLevel":"High income",
    "gdp_per_capita":33729.7985494455
  },
  {
    "countryiso3code":"LAO",
    "year":2023,
    "gdp_current_usd":15843155731.2551994324,
    "population":7664993.0,
    "id":"LAO",
    "iso2Code":"LA",
    "name":"Lao PDR",
    "capitalCity":"Vientiane",
    "longitude":102.177,
    "latitude":18.5826,
    "region":"East Asia & Pacific",
    "incomeLevel":"Lower middle income",
    "gdp_per_capita":2066.9497977696
  },
  {
    "countryiso3code":"LBN",
    "year":2023,
    "gdp_current_usd":null,
    "population":5773493.0,
    "id":"LBN",
    "iso2Code":"LB",
    "name":"Lebanon",
    "capitalCity":"Beirut",
    "longitude":35.5134,
    "latitude":33.8872,
    "region":"Middle East & North Africa",
    "incomeLevel":"Lower middle income",
    "gdp_per_capita":null
  },
  {
    "countryiso3code":"LBR",
    "year":2023,
    "gdp_current_usd":4240000000.0,
    "population":5493031.0,
    "id":"LBR",
    "iso2Code":"LR",
    "name":"Liberia",
    "capitalCity":"Monrovia",
    "longitude":-10.7957,
    "latitude":6.30039,
    "region":"Sub-Saharan Africa ",
    "incomeLevel":"Low income",
    "gdp_per_capita":771.8871420897
  },
  {
    "countryiso3code":"LBY",
    "year":2023,
    "gdp_current_usd":45096462972.4013977051,
    "population":7305659.0,
    "id":"LBY",
    "iso2Code":"LY",
    "name":"Libya",
    "capitalCity":"Tripoli",
    "longitude":13.1072,
    "latitude":32.8578,
    "region":"Middle East & North Africa",
    "incomeLevel":"Upper middle income",
    "gdp_per_capita":6172.8124694023
  },
  {
    "countryiso3code":"LCA",
    "year":2023,
    "gdp_current_usd":2430148148.1481499672,
    "population":179285.0,
    "id":"LCA",
    "iso2Code":"LC",
    "name":"St. Lucia",
    "capitalCity":"Castries",
    "longitude":-60.9832,
    "latitude":14.0,
    "region":"Latin America & Caribbean ",
    "incomeLevel":"Upper middle income",
    "gdp_per_capita":13554.6651875402
  },
  {
    "countryiso3code":"LIE",
    "year":2023,
    "gdp_current_usd":null,
    "population":39850.0,
    "id":"LIE",
    "iso2Code":"LI",
    "name":"Liechtenstein",
    "capitalCity":"Vaduz",
    "longitude":9.52148,
    "latitude":47.1411,
    "region":"Europe & Central Asia",
    "incomeLevel":"High income",
    "gdp_per_capita":null
  },
  {
    "countryiso3code":"LKA",
    "year":2023,
    "gdp_current_usd":84356863743.6334991455,
    "population":22037000.0,
    "id":"LKA",
    "iso2Code":"LK",
    "name":"Sri Lanka",
    "capitalCity":"Colombo",
    "longitude":79.8528,
    "latitude":6.92148,
    "region":"South Asia",
    "incomeLevel":"Lower middle income",
    "gdp_per_capita":3827.9649563749
  },
  {
    "countryiso3code":"LSO",
    "year":2023,
    "gdp_current_usd":2117962450.7946898937,
    "population":2311472.0,
    "id":"LSO",
    "iso2Code":"LS",
    "name":"Lesotho",
    "capitalCity":"Maseru",
    "longitude":27.7167,
    "latitude":-29.5208,
    "region":"Sub-Saharan Africa ",
    "incomeLevel":"Lower middle income",
    "gdp_per_capita":916.2829793286
  },
  {
    "countryiso3code":"LTU",
    "year":2023,
    "gdp_current_usd":79789877416.1681060791,
    "population":2871585.0,
    "id":"LTU",
    "iso2Code":"LT",
    "name":"Lithuania",
    "capitalCity":"Vilnius",
    "longitude":25.2799,
    "latitude":54.6896,
    "region":"Europe & Central Asia",
    "incomeLevel":"High income",
    "gdp_per_capita":27786.0057829276
  },
  {
    "countryiso3code":"LUX",
    "year":2023,
    "gdp_current_usd":85755006123.5975952148,
    "population":666430.0,
    "id":"LUX",
    "iso2Code":"LU",
    "name":"Luxembourg",
    "capitalCity":"Luxembourg",
    "longitude":6.1296,
    "latitude":49.61,
    "region":"Europe & Central Asia",
    "incomeLevel":"High income",
    "gdp_per_capita":128678.1899428261
  },
  {
    "countryiso3code":"LVA",
    "year":2023,
    "gdp_current_usd":42247850064.5124969482,
    "population":1877445.0,
    "id":"LVA",
    "iso2Code":"LV",
    "name":"Latvia",
    "capitalCity":"Riga",
    "longitude":24.1048,
    "latitude":56.9465,
    "region":"Europe & Central Asia",
    "incomeLevel":"High income",
    "gdp_per_capita":22502.8429938094
  },
  {
    "countryiso3code":"MAR",
    "year":2023,
    "gdp_current_usd":144417103249.6459960938,
    "population":37712505.0,
    "id":"MAR",
    "iso2Code":"MA",
    "name":"Morocco",
    "capitalCity":"Rabat",
    "longitude":-6.8704,
    "latitude":33.9905,
    "region":"Middle East & North Africa",
    "incomeLevel":"Lower middle income",
    "gdp_per_capita":3829.4221836933
  },
  {
    "countryiso3code":"MCO",
    "year":2023,
    "gdp_current_usd":9995350547.1216602325,
    "population":38956.0,
    "id":"MCO",
    "iso2Code":"MC",
    "name":"Monaco",
    "capitalCity":"Monaco",
    "longitude":7.41891,
    "latitude":43.7325,
    "region":"Europe & Central Asia",
    "incomeLevel":"High income",
    "gdp_per_capita":256580.5151227452
  },
  {
    "countryiso3code":"MDA",
    "year":2023,
    "gdp_current_usd":16539436547.2950000763,
    "population":2457783.0,
    "id":"MDA",
    "iso2Code":"MD",
    "name":"Moldova",
    "capitalCity":"Chisinau",
    "longitude":28.8497,
    "latitude":47.0167,
    "region":"Europe & Central Asia",
    "incomeLevel":"Upper middle income",
    "gdp_per_capita":6729.4128681397
  },
  {
    "countryiso3code":"MDG",
    "year":2023,
    "gdp_current_usd":15790113246.747800827,
    "population":31195932.0,
    "id":"MDG",
    "iso2Code":"MG",
    "name":"Madagascar",
    "capitalCity":"Antananarivo",
    "longitude":45.7167,
    "latitude":-20.4667,
    "region":"Sub-Saharan Africa ",
    "incomeLevel":"Low income",
    "gdp_per_capita":506.1593686878
  },
  {
    "countryiso3code":"MDV",
    "year":2023,
    "gdp_current_usd":6590894301.9579000473,
    "population":525994.0,
    "id":"MDV",
    "iso2Code":"MV",
    "name":"Maldives",
    "capitalCity":"Male",
    "longitude":73.5109,
    "latitude":4.1742,
    "region":"South Asia",
    "incomeLevel":"Upper middle income",
    "gdp_per_capita":12530.3602359683
  },
  {
    "countryiso3code":"MEX",
    "year":2023,
    "gdp_current_usd":1789114434843.4599609375,
    "population":129739759.0,
    "id":"MEX",
    "iso2Code":"MX",
    "name":"Mexico",
    "capitalCity":"Mexico City",
    "longitude":-99.1276,
    "latitude":19.427,
    "region":"Latin America & Caribbean ",
    "incomeLevel":"Upper middle income",
    "gdp_per_capita":13790.0243428343
  },
  {
    "countryiso3code":"MHL",
    "year":2023,
    "gdp_current_usd":259300000.0,
    "population":38827.0,
    "id":"MHL",
    "iso2Code":"MH",
    "name":"Marshall Islands",
    "capitalCity":"Majuro",
    "longitude":171.135,
    "latitude":7.11046,
    "region":"East Asia & Pacific",
    "incomeLevel":"Upper middle income",
    "gdp_per_capita":6678.3423906045
  },
  {
    "countryiso3code":"MKD",
    "year":2023,
    "gdp_current_usd":15763621848.1149997711,
    "population":1827816.0,
    "id":"MKD",
    "iso2Code":"MK",
    "name":"North Macedonia",
    "capitalCity":"Skopje",
    "longitude":21.4361,
    "latitude":42.0024,
    "region":"Europe & Central Asia",
    "incomeLevel":"Upper middle income",
    "gdp_per_capita":8624.2936094853
  },
  {
    "countryiso3code":"MLI",
    "year":2023,
    "gdp_current_usd":20661794596.0872993469,
    "population":23769127.0,
    "id":"MLI",
    "iso2Code":"ML",
    "name":"Mali",
    "capitalCity":"Bamako",
    "longitude":-7.50034,
    "latitude":13.5667,
    "region":"Sub-Saharan Africa ",
    "incomeLevel":"Low income",
    "gdp_per_capita":869.270234287
  },
  {
    "countryiso3code":"MLT",
    "year":2023,
    "gdp_current_usd":22328640241.5553016663,
    "population":552747.0,
    "id":"MLT",
    "iso2Code":"MT",
    "name":"Malta",
    "capitalCity":"Valletta",
    "longitude":14.5189,
    "latitude":35.9042,
    "region":"Middle East & North Africa",
    "incomeLevel":"High income",
    "gdp_per_capita":40395.7692064458
  },
  {
    "countryiso3code":"MMR",
    "year":2023,
    "gdp_current_usd":66757619000.0,
    "population":54133798.0,
    "id":"MMR",
    "iso2Code":"MM",
    "name":"Myanmar",
    "capitalCity":"Naypyidaw",
    "longitude":95.9562,
    "latitude":21.914,
    "region":"East Asia & Pacific",
    "incomeLevel":"Lower middle income",
    "gdp_per_capita":1233.1966620927
  },
  {
    "countryiso3code":"MNE",
    "year":2023,
    "gdp_current_usd":7530593375.2203397751,
    "population":616177.0,
    "id":"MNE",
    "iso2Code":"ME",
    "name":"Montenegro",
    "capitalCity":"Podgorica",
    "longitude":19.2595,
    "latitude":42.4602,
    "region":"Europe & Central Asia",
    "incomeLevel":"Upper middle income",
    "gdp_per_capita":12221.4775546967
  },
  {
    "countryiso3code":"MNG",
    "year":2023,
    "gdp_current_usd":20325121393.9073982239,
    "population":3481145.0,
    "id":"MNG",
    "iso2Code":"MN",
    "name":"Mongolia",
    "capitalCity":"Ulaanbaatar",
    "longitude":106.937,
    "latitude":47.9129,
    "region":"East Asia & Pacific",
    "incomeLevel":"Upper middle income",
    "gdp_per_capita":5838.631080839
  },
  {
    "countryiso3code":"MNP",
    "year":2023,
    "gdp_current_usd":null,
    "population":45143.0,
    "id":"MNP",
    "iso2Code":"MP",
    "name":"Northern Mariana Islands",
    "capitalCity":"Saipan",
    "longitude":145.765,
    "latitude":15.1935,
    "region":"East Asia & Pacific",
    "incomeLevel":"High income",
    "gdp_per_capita":null
  },
  {
    "countryiso3code":"MOZ",
    "year":2023,
    "gdp_current_usd":20954220983.5472984314,
    "population":33635160.0,
    "id":"MOZ",
    "iso2Code":"MZ",
    "name":"Mozambique",
    "capitalCity":"Maputo",
    "longitude":32.5713,
    "latitude":-25.9664,
    "region":"Sub-Saharan Africa ",
    "incomeLevel":"Low income",
    "gdp_per_capita":622.9856193206
  },
  {
    "countryiso3code":"MRT",
    "year":2023,
    "gdp_current_usd":10651709411.459400177,
    "population":5022441.0,
    "id":"MRT",
    "iso2Code":"MR",
    "name":"Mauritania",
    "capitalCity":"Nouakchott",
    "longitude":-15.9824,
    "latitude":18.2367,
    "region":"Sub-Saharan Africa ",
    "incomeLevel":"Lower middle income",
    "gdp_per_capita":2120.8232035895
  },
  {
    "countryiso3code":"MUS",
    "year":2023,
    "gdp_current_usd":14644524819.005399704,
    "population":1261041.0,
    "id":"MUS",
    "iso2Code":"MU",
    "name":"Mauritius",
    "capitalCity":"Port Louis",
    "longitude":57.4977,
    "latitude":-20.1605,
    "region":"Sub-Saharan Africa ",
    "incomeLevel":"Upper middle income",
    "gdp_per_capita":11613.0441587588
  },
  {
    "countryiso3code":"MWI",
    "year":2023,
    "gdp_current_usd":12712150082.0792007446,
    "population":21104482.0,
    "id":"MWI",
    "iso2Code":"MW",
    "name":"Malawi",
    "capitalCity":"Lilongwe",
    "longitude":33.7703,
    "latitude":-13.9899,
    "region":"Sub-Saharan Africa ",
    "incomeLevel":"Low income",
    "gdp_per_capita":602.3436198093
  },
  {
    "countryiso3code":"MYS",
    "year":2023,
    "gdp_current_usd":399705169318.4769897461,
    "population":35126298.0,
    "id":"MYS",
    "iso2Code":"MY",
    "name":"Malaysia",
    "capitalCity":"Kuala Lumpur",
    "longitude":101.684,
    "latitude":3.12433,
    "region":"East Asia & Pacific",
    "incomeLevel":"Upper middle income",
    "gdp_per_capita":11379.0861000632
  },
  {
    "countryiso3code":"NAM",
    "year":2023,
    "gdp_current_usd":12351025066.9130992889,
    "population":2963095.0,
    "id":"NAM",
    "iso2Code":"NA",
    "name":"Namibia",
    "capitalCity":"Windhoek",
    "longitude":17.0931,
    "latitude":-22.5648,
    "region":"Sub-Saharan Africa ",
    "incomeLevel":"Upper middle income",
    "gdp_per_capita":4168.2852108735
  },
  {
    "countryiso3code":"NCL",
    "year":2023,
    "gdp_current_usd":null,
    "population":289870.0,
    "id":"NCL",
    "iso2Code":"NC",
    "name":"New Caledonia",
    "capitalCity":"Noum'ea",
    "longitude":166.464,
    "latitude":-22.2677,
    "region":"East Asia & Pacific",
    "incomeLevel":"High income",
    "gdp_per_capita":null
  },
  {
    "countryiso3code":"NER",
    "year":2023,
    "gdp_current_usd":16819170420.5652999878,
    "population":26159867.0,
    "id":"NER",
    "iso2Code":"NE",
    "name":"Niger",
    "capitalCity":"Niamey",
    "longitude":2.1073,
    "latitude":13.514,
    "region":"Sub-Saharan Africa ",
    "incomeLevel":"Low income",
    "gdp_per_capita":642.9379178635
  },
  {
    "countryiso3code":"NGA",
    "year":2023,
    "gdp_current_usd":363846332834.617980957,
    "population":227882945.0,
    "id":"NGA",
    "iso2Code":"NG",
    "name":"Nigeria",
    "capitalCity":"Abuja",
    "longitude":7.48906,
    "latitude":9.05804,
    "region":"Sub-Saharan Africa ",
    "incomeLevel":"Lower middle income",
    "gdp_per_capita":1596.63696129
  },
  {
    "countryiso3code":"NIC",
    "year":2023,
    "gdp_current_usd":17829218219.3591003418,
    "population":6823613.0,
    "id":"NIC",
    "iso2Code":"NI",
    "name":"Nicaragua",
    "capitalCity":"Managua",
    "longitude":-86.2734,
    "latitude":12.1475,
    "region":"Latin America & Caribbean ",
    "incomeLevel":"Lower middle income",
    "gdp_per_capita":2612.8706624129
  },
  {
    "countryiso3code":"NLD",
    "year":2023,
    "gdp_current_usd":1154361305398.0600585938,
    "population":17877117.0,
    "id":"NLD",
    "iso2Code":"NL",
    "name":"Netherlands",
    "capitalCity":"Amsterdam",
    "longitude":4.89095,
    "latitude":52.3738,
    "region":"Europe & Central Asia",
    "incomeLevel":"High income",
    "gdp_per_capita":64572.0059558854
  },
  {
    "countryiso3code":"NOR",
    "year":2023,
    "gdp_current_usd":485310823603.6619873047,
    "population":5519594.0,
    "id":"NOR",
    "iso2Code":"NO",
    "name":"Norway",
    "capitalCity":"Oslo",
    "longitude":10.7387,
    "latitude":59.9138,
    "region":"Europe & Central Asia",
    "incomeLevel":"High income",
    "gdp_per_capita":87925.0944188399
  },
  {
    "countryiso3code":"NPL",
    "year":2023,
    "gdp_current_usd":40908073366.8454971313,
    "population":29694614.0,
    "id":"NPL",
    "iso2Code":"NP",
    "name":"Nepal",
    "capitalCity":"Kathmandu",
    "longitude":85.3157,
    "latitude":27.6939,
    "region":"South Asia",
    "incomeLevel":"Lower middle income",
    "gdp_per_capita":1377.6260357129
  },
  {
    "countryiso3code":"NRU",
    "year":2023,
    "gdp_current_usd":154170289.3218609989,
    "population":11875.0,
    "id":"NRU",
    "iso2Code":"NR",
    "name":"Nauru",
    "capitalCity":"Yaren District",
    "longitude":166.920867,
    "latitude":-0.5477,
    "region":"East Asia & Pacific",
    "incomeLevel":"High income",
    "gdp_per_capita":12982.7612060515
  },
  {
    "countryiso3code":"NZL",
    "year":2023,
    "gdp_current_usd":252175506110.1679992676,
    "population":5223100.0,
    "id":"NZL",
    "iso2Code":"NZ",
    "name":"New Zealand",
    "capitalCity":"Wellington",
    "longitude":174.776,
    "latitude":-41.2865,
    "region":"East Asia & Pacific",
    "incomeLevel":"High income",
    "gdp_per_capita":48280.8114166238
  },
  {
    "countryiso3code":"OMN",
    "year":2023,
    "gdp_current_usd":108810923276.983001709,
    "population":5049269.0,
    "id":"OMN",
    "iso2Code":"OM",
    "name":"Oman",
    "capitalCity":"Muscat",
    "longitude":58.5874,
    "latitude":23.6105,
    "region":"Middle East & North Africa",
    "incomeLevel":"High income",
    "gdp_per_capita":21549.8368728192
  },
  {
    "countryiso3code":"PAK",
    "year":2023,
    "gdp_current_usd":337912301397.7269897461,
    "population":247504495.0,
    "id":"PAK",
    "iso2Code":"PK",
    "name":"Pakistan",
    "capitalCity":"Islamabad",
    "longitude":72.8,
    "latitude":30.5167,
    "region":"South Asia",
    "incomeLevel":"Lower middle income",
    "gdp_per_capita":1365.2774322249
  },
  {
    "countryiso3code":"PAN",
    "year":2023,
    "gdp_current_usd":83318176900.0,
    "population":4458759.0,
    "id":"PAN",
    "iso2Code":"PA",
    "name":"Panama",
    "capitalCity":"Panama City",
    "longitude":-79.5188,
    "latitude":8.99427,
    "region":"Latin America & Caribbean ",
    "incomeLevel":"High income",
    "gdp_per_capita":18686.4050961265
  },
  {
    "countryiso3code":"PER",
    "year":2023,
    "gdp_current_usd":267603248655.2529907227,
    "population":33845617.0,
    "id":"PER",
    "iso2Code":"PE",
    "name":"Peru",
    "capitalCity":"Lima",
    "longitude":-77.0465,
    "latitude":-12.0931,
    "region":"Latin America & Caribbean ",
    "incomeLevel":"Upper middle income",
    "gdp_per_capita":7906.58502858
  },
  {
    "countryiso3code":"PHL",
    "year":2023,
    "gdp_current_usd":437146372729.9420166016,
    "population":114891199.0,
    "id":"PHL",
    "iso2Code":"PH",
    "name":"Philippines",
    "capitalCity":"Manila",
    "longitude":121.035,
    "latitude":14.5515,
    "region":"East Asia & Pacific",
    "incomeLevel":"Lower middle income",
    "gdp_per_capita":3804.8725797521
  },
  {
    "countryiso3code":"PLW",
    "year":2023,
    "gdp_current_usd":281849062.5,
    "population":17727.0,
    "id":"PLW",
    "iso2Code":"PW",
    "name":"Palau",
    "capitalCity":"Koror",
    "longitude":134.479,
    "latitude":7.34194,
    "region":"East Asia & Pacific",
    "incomeLevel":"High income",
    "gdp_per_capita":15899.4224911152
  },
  {
    "countryiso3code":"PNG",
    "year":2023,
    "gdp_current_usd":30729242919.4411010742,
    "population":10389635.0,
    "id":"PNG",
    "iso2Code":"PG",
    "name":"Papua New Guinea",
    "capitalCity":"Port Moresby",
    "longitude":147.194,
    "latitude":-9.47357,
    "region":"East Asia & Pacific",
    "incomeLevel":"Lower middle income",
    "gdp_per_capita":2957.6826249855
  },
  {
    "countryiso3code":"POL",
    "year":2023,
    "gdp_current_usd":809200697797.0880126953,
    "population":36687353.0,
    "id":"POL",
    "iso2Code":"PL",
    "name":"Poland",
    "capitalCity":"Warsaw",
    "longitude":21.02,
    "latitude":52.26,
    "region":"Europe & Central Asia",
    "incomeLevel":"High income",
    "gdp_per_capita":22056.6661704127
  },
  {
    "countryiso3code":"PRI",
    "year":2023,
    "gdp_current_usd":117902300000.0,
    "population":3205691.0,
    "id":"PRI",
    "iso2Code":"PR",
    "name":"Puerto Rico",
    "capitalCity":"San Juan",
    "longitude":-66.0,
    "latitude":18.23,
    "region":"Latin America & Caribbean ",
    "incomeLevel":"High income",
    "gdp_per_capita":36779.0594913858
  },
  {
    "countryiso3code":"PRK",
    "year":2023,
    "gdp_current_usd":null,
    "population":26418204.0,
    "id":"PRK",
    "iso2Code":"KP",
    "name":"Korea, Dem. People's Rep.",
    "capitalCity":"Pyongyang",
    "longitude":125.754,
    "latitude":39.0319,
    "region":"East Asia & Pacific",
    "incomeLevel":"Low income",
    "gdp_per_capita":null
  },
  {
    "countryiso3code":"PRT",
    "year":2023,
    "gdp_current_usd":289114289663.5419921875,
    "population":10578174.0,
    "id":"PRT",
    "iso2Code":"PT",
    "name":"Portugal",
    "capitalCity":"Lisbon",
    "longitude":-9.13552,
    "latitude":38.7072,
    "region":"Europe & Central Asia",
    "incomeLevel":"High income",
    "gdp_per_capita":27331.2094945254
  },
  {
    "countryiso3code":"PRY",
    "year":2023,
    "gdp_current_usd":42956263543.9481964111,
    "population":6844146.0,
    "id":"PRY",
    "iso2Code":"PY",
    "name":"Paraguay",
    "capitalCity":"Asuncion",
    "longitude":-57.6362,
    "latitude":-25.3005,
    "region":"Latin America & Caribbean ",
    "incomeLevel":"Upper middle income",
    "gdp_per_capita":6276.3511391996
  },
  {
    "countryiso3code":"PYF",
    "year":2023,
    "gdp_current_usd":null,
    "population":281118.0,
    "id":"PYF",
    "iso2Code":"PF",
    "name":"French Polynesia",
    "capitalCity":"Papeete",
    "longitude":-149.57,
    "latitude":-17.535,
    "region":"East Asia & Pacific",
    "incomeLevel":"High income",
    "gdp_per_capita":null
  },
  {
    "countryiso3code":"QAT",
    "year":2023,
    "gdp_current_usd":213002809330.266998291,
    "population":2656032.0,
    "id":"QAT",
    "iso2Code":"QA",
    "name":"Qatar",
    "capitalCity":"Doha",
    "longitude":51.5082,
    "latitude":25.2948,
    "region":"Middle East & North Africa",
    "incomeLevel":"High income",
    "gdp_per_capita":80195.8746469421
  },
  {
    "countryiso3code":"ROU",
    "year":2023,
    "gdp_current_usd":350775856415.1890258789,
    "population":19059479.0,
    "id":"ROU",
    "iso2Code":"RO",
    "name":"Romania",
    "capitalCity":"Bucharest",
    "longitude":26.0979,
    "latitude":44.4479,
    "region":"Europe & Central Asia",
    "incomeLevel":"High income",
    "gdp_per_capita":18404.2730871704
  },
  {
    "countryiso3code":"RUS",
    "year":2023,
    "gdp_current_usd":2021421476035.419921875,
    "population":143826130.0,
    "id":"RUS",
    "iso2Code":"RU",
    "name":"Russian Federation",
    "capitalCity":"Moscow",
    "longitude":37.6176,
    "latitude":55.7558,
    "region":"Europe & Central Asia",
    "incomeLevel":"High income",
    "gdp_per_capita":14054.6191157019
  },
  {
    "countryiso3code":"RWA",
    "year":2023,
    "gdp_current_usd":14097768472.1882991791,
    "population":13954471.0,
    "id":"RWA",
    "iso2Code":"RW",
    "name":"Rwanda",
    "capitalCity":"Kigali",
    "longitude":30.0587,
    "latitude":-1.95325,
    "region":"Sub-Saharan Africa ",
    "incomeLevel":"Low income",
    "gdp_per_capita":1010.2689290184
  },
  {
    "countryiso3code":"SAU",
    "year":2023,
    "gdp_current_usd":1067582933333.3299560547,
    "population":33264292.0,
    "id":"SAU",
    "iso2Code":"SA",
    "name":"Saudi Arabia",
    "capitalCity":"Riyadh",
    "longitude":46.6977,
    "latitude":24.6748,
    "region":"Middle East & North Africa",
    "incomeLevel":"High income",
    "gdp_per_capita":32093.962298471
  },
  {
    "countryiso3code":"SDN",
    "year":2023,
    "gdp_current_usd":109265503110.904006958,
    "population":50042791.0,
    "id":"SDN",
    "iso2Code":"SD",
    "name":"Sudan",
    "capitalCity":"Khartoum",
    "longitude":32.5363,
    "latitude":15.5932,
    "region":"Sub-Saharan Africa ",
    "incomeLevel":"Low income",
    "gdp_per_capita":2183.441429374
  },
  {
    "countryiso3code":"SEN",
    "year":2023,
    "gdp_current_usd":30848333083.7055015564,
    "population":18077573.0,
    "id":"SEN",
    "iso2Code":"SN",
    "name":"Senegal",
    "capitalCity":"Dakar",
    "longitude":-17.4734,
    "latitude":14.7247,
    "region":"Sub-Saharan Africa ",
    "incomeLevel":"Lower middle income",
    "gdp_per_capita":1706.4421802476
  },
  {
    "countryiso3code":"SGP",
    "year":2023,
    "gdp_current_usd":501427500080.0590209961,
    "population":5917648.0,
    "id":"SGP",
    "iso2Code":"SG",
    "name":"Singapore",
    "capitalCity":"Singapore",
    "longitude":103.85,
    "latitude":1.28941,
    "region":"East Asia & Pacific",
    "incomeLevel":"High income",
    "gdp_per_capita":84734.2559206055
  },
  {
    "countryiso3code":"SLB",
    "year":2023,
    "gdp_current_usd":1633319401.1941399574,
    "population":800005.0,
    "id":"SLB",
    "iso2Code":"SB",
    "name":"Solomon Islands",
    "capitalCity":"Honiara",
    "longitude":159.949,
    "latitude":-9.42676,
    "region":"East Asia & Pacific",
    "incomeLevel":"Lower middle income",
    "gdp_per_capita":2041.6364912646
  },
  {
    "countryiso3code":"SLE",
    "year":2023,
    "gdp_current_usd":6411869546.2892904282,
    "population":8460512.0,
    "id":"SLE",
    "iso2Code":"SL",
    "name":"Sierra Leone",
    "capitalCity":"Freetown",
    "longitude":-13.2134,
    "latitude":8.4821,
    "region":"Sub-Saharan Africa ",
    "incomeLevel":"Low income",
    "gdp_per_capita":757.8583360309
  },
  {
    "countryiso3code":"SLV",
    "year":2023,
    "gdp_current_usd":34015620000.0,
    "population":6309624.0,
    "id":"SLV",
    "iso2Code":"SV",
    "name":"El Salvador",
    "capitalCity":"San Salvador",
    "longitude":-89.2073,
    "latitude":13.7034,
    "region":"Latin America & Caribbean ",
    "incomeLevel":"Upper middle income",
    "gdp_per_capita":5391.0692618134
  },
  {
    "countryiso3code":"SMR",
    "year":2023,
    "gdp_current_usd":null,
    "population":33860.0,
    "id":"SMR",
    "iso2Code":"SM",
    "name":"San Marino",
    "capitalCity":"San Marino",
    "longitude":12.4486,
    "latitude":43.9322,
    "region":"Europe & Central Asia",
    "incomeLevel":"High income",
    "gdp_per_capita":null
  },
  {
    "countryiso3code":"SOM",
    "year":2023,
    "gdp_current_usd":10968517090.0004005432,
    "population":18358615.0,
    "id":"SOM",
    "iso2Code":"SO",
    "name":"Somalia",
    "capitalCity":"Mogadishu",
    "longitude":45.3254,
    "latitude":2.07515,
    "region":"Sub-Saharan Africa ",
    "incomeLevel":"Low income",
    "gdp_per_capita":597.4588546032
  },
  {
    "countryiso3code":"SRB",
    "year":2023,
    "gdp_current_usd":81342660752.3731994629,
    "population":6623183.0,
    "id":"SRB",
    "iso2Code":"RS",
    "name":"Serbia",
    "capitalCity":"Belgrade",
    "longitude":20.4656,
    "latitude":44.8024,
    "region":"Europe & Central Asia",
    "incomeLevel":"Upper middle income",
    "gdp_per_capita":12281.5058488303
  },
  {
    "countryiso3code":"SSD",
    "year":2023,
    "gdp_current_usd":null,
    "population":11483374.0,
    "id":"SSD",
    "iso2Code":"SS",
    "name":"South Sudan",
    "capitalCity":"Juba",
    "longitude":31.6,
    "latitude":4.85,
    "region":"Sub-Saharan Africa ",
    "incomeLevel":"Low income",
    "gdp_per_capita":null
  },
  {
    "countryiso3code":"STP",
    "year":2023,
    "gdp_current_usd":678976264.8354359865,
    "population":230871.0,
    "id":"STP",
    "iso2Code":"ST",
    "name":"Sao Tome and Principe",
    "capitalCity":"Sao Tome",
    "longitude":6.6071,
    "latitude":0.20618,
    "region":"Sub-Saharan Africa ",
    "incomeLevel":"Lower middle income",
    "gdp_per_capita":2940.9335292671
  },
  {
    "countryiso3code":"SUR",
    "year":2023,
    "gdp_current_usd":3455146280.8397498131,
    "population":628886.0,
    "id":"SUR",
    "iso2Code":"SR",
    "name":"Suriname",
    "capitalCity":"Paramaribo",
    "longitude":-55.1679,
    "latitude":5.8232,
    "region":"Latin America & Caribbean ",
    "incomeLevel":"Upper middle income",
    "gdp_per_capita":5494.0740942552
  },
  {
    "countryiso3code":"SVK",
    "year":2023,
    "gdp_current_usd":132908336234.2949981689,
    "population":5426740.0,
    "id":"SVK",
    "iso2Code":"SK",
    "name":"Slovak Republic",
    "capitalCity":"Bratislava",
    "longitude":17.1073,
    "latitude":48.1484,
    "region":"Europe & Central Asia",
    "incomeLevel":"High income",
    "gdp_per_capita":24491.3771867263
  },
  {
    "countryiso3code":"SVN",
    "year":2023,
    "gdp_current_usd":69148468417.3208007812,
    "population":2120461.0,
    "id":"SVN",
    "iso2Code":"SI",
    "name":"Slovenia",
    "capitalCity":"Ljubljana",
    "longitude":14.5044,
    "latitude":46.0546,
    "region":"Europe & Central Asia",
    "incomeLevel":"High income",
    "gdp_per_capita":32610.110922729
  },
  {
    "countryiso3code":"SWE",
    "year":2023,
    "gdp_current_usd":584960475767.3199462891,
    "population":10536632.0,
    "id":"SWE",
    "iso2Code":"SE",
    "name":"Sweden",
    "capitalCity":"Stockholm",
    "longitude":18.0645,
    "latitude":59.3327,
    "region":"Europe & Central Asia",
    "incomeLevel":"High income",
    "gdp_per_capita":55516.836477474
  },
  {
    "countryiso3code":"SWZ",
    "year":2023,
    "gdp_current_usd":4442875788.0850496292,
    "population":1230506.0,
    "id":"SWZ",
    "iso2Code":"SZ",
    "name":"Eswatini",
    "capitalCity":"Mbabane",
    "longitude":31.4659,
    "latitude":-26.5225,
    "region":"Sub-Saharan Africa ",
    "incomeLevel":"Lower middle income",
    "gdp_per_capita":3610.6087967755
  },
  {
    "countryiso3code":"SYC",
    "year":2023,
    "gdp_current_usd":2141450171.1393198967,
    "population":119773.0,
    "id":"SYC",
    "iso2Code":"SC",
    "name":"Seychelles",
    "capitalCity":"Victoria",
    "longitude":55.4466,
    "latitude":-4.6309,
    "region":"Sub-Saharan Africa ",
    "incomeLevel":"High income",
    "gdp_per_capita":17879.2396545074
  },
  {
    "countryiso3code":"SYR",
    "year":2023,
    "gdp_current_usd":null,
    "population":23594623.0,
    "id":"SYR",
    "iso2Code":"SY",
    "name":"Syrian Arab Republic",
    "capitalCity":"Damascus",
    "longitude":36.3119,
    "latitude":33.5146,
    "region":"Middle East & North Africa",
    "incomeLevel":"Low income",
    "gdp_per_capita":null
  },
  {
    "countryiso3code":"TCA",
    "year":2023,
    "gdp_current_usd":1402054390.9473400116,
    "population":46198.0,
    "id":"TCA",
    "iso2Code":"TC",
    "name":"Turks and Caicos Islands",
    "capitalCity":"Grand Turk",
    "longitude":-71.141389,
    "latitude":21.4602778,
    "region":"Latin America & Caribbean ",
    "incomeLevel":"High income",
    "gdp_per_capita":30348.8114409139
  },
  {
    "countryiso3code":"TCD",
    "year":2023,
    "gdp_current_usd":13149325362.3346996307,
    "population":19319064.0,
    "id":"TCD",
    "iso2Code":"TD",
    "name":"Chad",
    "capitalCity":"N'Djamena",
    "longitude":15.0445,
    "latitude":12.1048,
    "region":"Sub-Saharan Africa ",
    "incomeLevel":"Low income",
    "gdp_per_capita":680.639877912
  },
  {
    "countryiso3code":"TGO",
    "year":2023,
    "gdp_current_usd":9171261837.5710296631,
    "population":9304337.0,
    "id":"TGO",
    "iso2Code":"TG",
    "name":"Togo",
    "capitalCity":"Lome",
    "longitude":1.2255,
    "latitude":6.1228,
    "region":"Sub-Saharan Africa ",
    "incomeLevel":"Low income",
    "gdp_per_capita":985.69751263
  },
  {
    "countryiso3code":"THA",
    "year":2023,
    "gdp_current_usd":514968699239.0050048828,
    "population":71702435.0,
    "id":"THA",
    "iso2Code":"TH",
    "name":"Thailand",
    "capitalCity":"Bangkok",
    "longitude":100.521,
    "latitude":13.7308,
    "region":"East Asia & Pacific",
    "incomeLevel":"Upper middle income",
    "gdp_per_capita":7182.0252581241
  },
  {
    "countryiso3code":"TJK",
    "year":2023,
    "gdp_current_usd":12060602008.8477993011,
    "population":10389799.0,
    "id":"TJK",
    "iso2Code":"TJ",
    "name":"Tajikistan",
    "capitalCity":"Dushanbe",
    "longitude":68.7864,
    "latitude":38.5878,
    "region":"Europe & Central Asia",
    "incomeLevel":"Lower middle income",
    "gdp_per_capita":1160.8118702631
  },
  {
    "countryiso3code":"TKM",
    "year":2023,
    "gdp_current_usd":60628857142.8571014404,
    "population":7364438.0,
    "id":"TKM",
    "iso2Code":"TM",
    "name":"Turkmenistan",
    "capitalCity":"Ashgabat",
    "longitude":58.3794,
    "latitude":37.9509,
    "region":"Europe & Central Asia",
    "incomeLevel":"Upper middle income",
    "gdp_per_capita":8232.6522598
  },
  {
    "countryiso3code":"TLS",
    "year":2023,
    "gdp_current_usd":2079916900.0,
    "population":1384286.0,
    "id":"TLS",
    "iso2Code":"TL",
    "name":"Timor-Leste",
    "capitalCity":"Dili",
    "longitude":125.567,
    "latitude":-8.56667,
    "region":"East Asia & Pacific",
    "incomeLevel":"Lower middle income",
    "gdp_per_capita":1502.5196382828
  },
  {
    "countryiso3code":"TON",
    "year":2023,
    "gdp_current_usd":null,
    "population":104597.0,
    "id":"TON",
    "iso2Code":"TO",
    "name":"Tonga",
    "capitalCity":"Nuku'alofa",
    "longitude":-175.216,
    "latitude":-21.136,
    "region":"East Asia & Pacific",
    "incomeLevel":"Upper middle income",
    "gdp_per_capita":null
  },
  {
    "countryiso3code":"TTO",
    "year":2023,
    "gdp_current_usd":27372285697.9477005005,
    "population":1367510.0,
    "id":"TTO",
    "iso2Code":"TT",
    "name":"Trinidad and Tobago",
    "capitalCity":"Port-of-Spain",
    "longitude":-61.4789,
    "latitude":10.6596,
    "region":"Latin America & Caribbean ",
    "incomeLevel":"High income",
    "gdp_per_capita":20016.1503008736
  },
  {
    "countryiso3code":"TUN",
    "year":2023,
    "gdp_current_usd":48529595416.6532974243,
    "population":12200431.0,
    "id":"TUN",
    "iso2Code":"TN",
    "name":"Tunisia",
    "capitalCity":"Tunis",
    "longitude":10.21,
    "latitude":36.7899,
    "region":"Middle East & North Africa",
    "incomeLevel":"Lower middle income",
    "gdp_per_capita":3977.6951663964
  },
  {
    "countryiso3code":"TUR",
    "year":2023,
    "gdp_current_usd":1118252964260.7700195312,
    "population":85325965.0,
    "id":"TUR",
    "iso2Code":"TR",
    "name":"Turkiye",
    "capitalCity":"Ankara",
    "longitude":32.3606,
    "latitude":39.7153,
    "region":"Europe & Central Asia",
    "incomeLevel":"Upper middle income",
    "gdp_per_capita":13105.6585678318
  },
  {
    "countryiso3code":"TUV",
    "year":2023,
    "gdp_current_usd":62280311.5852172002,
    "population":9816.0,
    "id":"TUV",
    "iso2Code":"TV",
    "name":"Tuvalu",
    "capitalCity":"Funafuti",
    "longitude":179.089567,
    "latitude":-8.6314877,
    "region":"East Asia & Pacific",
    "incomeLevel":"Upper middle income",
    "gdp_per_capita":6344.7750188689
  },
  {
    "countryiso3code":"TZA",
    "year":2023,
    "gdp_current_usd":79062403820.891998291,
    "population":66617606.0,
    "id":"TZA",
    "iso2Code":"TZ",
    "name":"Tanzania",
    "capitalCity":"Dodoma",
    "longitude":35.7382,
    "latitude":-6.17486,
    "region":"Sub-Saharan Africa ",
    "incomeLevel":"Lower middle income",
    "gdp_per_capita":1186.80944225
  },
  {
    "countryiso3code":"UGA",
    "year":2023,
    "gdp_current_usd":48768955863.3174972534,
    "population":48656601.0,
    "id":"UGA",
    "iso2Code":"UG",
    "name":"Uganda",
    "capitalCity":"Kampala",
    "longitude":32.5729,
    "latitude":0.314269,
    "region":"Sub-Saharan Africa ",
    "incomeLevel":"Low income",
    "gdp_per_capita":1002.3091391714
  },
  {
    "countryiso3code":"UKR",
    "year":2023,
    "gdp_current_usd":178757021965.0079956055,
    "population":37732836.0,
    "id":"UKR",
    "iso2Code":"UA",
    "name":"Ukraine",
    "capitalCity":"Kiev",
    "longitude":30.5038,
    "latitude":50.4536,
    "region":"Europe & Central Asia",
    "incomeLevel":"Upper middle income",
    "gdp_per_capita":4737.4393476549
  },
  {
    "countryiso3code":"URY",
    "year":2023,
    "gdp_current_usd":77240830877.4597015381,
    "population":3388081.0,
    "id":"URY",
    "iso2Code":"UY",
    "name":"Uruguay",
    "capitalCity":"Montevideo",
    "longitude":-56.0675,
    "latitude":-34.8941,
    "region":"Latin America & Caribbean ",
    "incomeLevel":"High income",
    "gdp_per_capita":22797.8111731861
  },
  {
    "countryiso3code":"USA",
    "year":2023,
    "gdp_current_usd":27720709000000.0,
    "population":334914895.0,
    "id":"USA",
    "iso2Code":"US",
    "name":"United States",
    "capitalCity":"Washington D.C.",
    "longitude":-77.032,
    "latitude":38.8895,
    "region":"North America",
    "incomeLevel":"High income",
    "gdp_per_capita":82769.4122114216
  },
  {
    "countryiso3code":"UZB",
    "year":2023,
    "gdp_current_usd":101591769702.3430023193,
    "population":35652307.0,
    "id":"UZB",
    "iso2Code":"UZ",
    "name":"Uzbekistan",
    "capitalCity":"Tashkent",
    "longitude":69.269,
    "latitude":41.3052,
    "region":"Europe & Central Asia",
    "incomeLevel":"Lower middle income",
    "gdp_per_capita":2849.5146107191
  },
  {
    "countryiso3code":"VCT",
    "year":2023,
    "gdp_current_usd":1065962962.9629600048,
    "population":101323.0,
    "id":"VCT",
    "iso2Code":"VC",
    "name":"St. Vincent and the Grenadines",
    "capitalCity":"Kingstown",
    "longitude":-61.2653,
    "latitude":13.2035,
    "region":"Latin America & Caribbean ",
    "incomeLevel":"Upper middle income",
    "gdp_per_capita":10520.4441534791
  },
  {
    "countryiso3code":"VEN",
    "year":2023,
    "gdp_current_usd":null,
    "population":28300854.0,
    "id":"VEN",
    "iso2Code":"VE",
    "name":"Venezuela, RB",
    "capitalCity":"Caracas",
    "longitude":-69.8371,
    "latitude":9.08165,
    "region":"Latin America & Caribbean ",
    "incomeLevel":"Not classified",
    "gdp_per_capita":null
  },
  {
    "countryiso3code":"VGB",
    "year":2023,
    "gdp_current_usd":null,
    "population":38985.0,
    "id":"VGB",
    "iso2Code":"VG",
    "name":"British Virgin Islands",
    "capitalCity":"Road Town",
    "longitude":-64.623056,
    "latitude":18.431389,
    "region":"Latin America & Caribbean ",
    "incomeLevel":"High income",
    "gdp_per_capita":null
  },
  {
    "countryiso3code":"VIR",
    "year":2023,
    "gdp_current_usd":null,
    "population":104917.0,
    "id":"VIR",
    "iso2Code":"VI",
    "name":"Virgin Islands (U.S.)",
    "capitalCity":"Charlotte Amalie",
    "longitude":-64.8963,
    "latitude":18.3358,
    "region":"Latin America & Caribbean ",
    "incomeLevel":"High income",
    "gdp_per_capita":null
  },
  {
    "countryiso3code":"VNM",
    "year":2023,
    "gdp_current_usd":429716969043.5720214844,
    "population":100352192.0,
    "id":"VNM",
    "iso2Code":"VN",
    "name":"Viet Nam",
    "capitalCity":"Hanoi",
    "longitude":105.825,
    "latitude":21.0069,
    "region":"East Asia & Pacific",
    "incomeLevel":"Lower middle income",
    "gdp_per_capita":4282.0885172451
  },
  {
    "countryiso3code":"VUT",
    "year":2023,
    "gdp_current_usd":1126313359.2192299366,
    "population":320409.0,
    "id":"VUT",
    "iso2Code":"VU",
    "name":"Vanuatu",
    "capitalCity":"Port-Vila",
    "longitude":168.321,
    "latitude":-17.7404,
    "region":"East Asia & Pacific",
    "incomeLevel":"Lower middle income",
    "gdp_per_capita":3515.236336118
  },
  {
    "countryiso3code":"WSM",
    "year":2023,
    "gdp_current_usd":938189443.8303929567,
    "population":216663.0,
    "id":"WSM",
    "iso2Code":"WS",
    "name":"Samoa",
    "capitalCity":"Apia",
    "longitude":-171.752,
    "latitude":-13.8314,
    "region":"East Asia & Pacific",
    "incomeLevel":"Lower middle income",
    "gdp_per_capita":4330.1784053133
  },
  {
    "countryiso3code":"XKX",
    "year":2023,
    "gdp_current_usd":10468219225.4869003296,
    "population":1756366.0,
    "id":"XKX",
    "iso2Code":"XK",
    "name":"Kosovo",
    "capitalCity":"Pristina",
    "longitude":20.926,
    "latitude":42.565,
    "region":"Europe & Central Asia",
    "incomeLevel":"Upper middle income",
    "gdp_per_capita":5960.1582047745
  },
  {
    "countryiso3code":"YEM",
    "year":2023,
    "gdp_current_usd":null,
    "population":39390799.0,
    "id":"YEM",
    "iso2Code":"YE",
    "name":"Yemen, Rep.",
    "capitalCity":"Sana'a",
    "longitude":44.2075,
    "latitude":15.352,
    "region":"Middle East & North Africa",
    "incomeLevel":"Low income",
    "gdp_per_capita":null
  },
  {
    "countryiso3code":"ZAF",
    "year":2023,
    "gdp_current_usd":380699271814.5079956055,
    "population":63212384.0,
    "id":"ZAF",
    "iso2Code":"ZA",
    "name":"South Africa",
    "capitalCity":"Pretoria",
    "longitude":28.1871,
    "latitude":-25.746,
    "region":"Sub-Saharan Africa ",
    "incomeLevel":"Upper middle income",
    "gdp_per_capita":6022.5425418935
  },
  {
    "countryiso3code":"ZMB",
    "year":2023,
    "gdp_current_usd":27577956471.2439994812,
    "population":20723965.0,
    "id":"ZMB",
    "iso2Code":"ZM",
    "name":"Zambia",
    "capitalCity":"Lusaka",
    "longitude":28.2937,
    "latitude":-15.3982,
    "region":"Sub-Saharan Africa ",
    "incomeLevel":"Lower middle income",
    "gdp_per_capita":1330.7278057671
  },
  {
    "countryiso3code":"ZWE",
    "year":2023,
    "gdp_current_usd":35231367885.8554000854,
    "population":16340822.0,
    "id":"ZWE",
    "iso2Code":"ZW",
    "name":"Zimbabwe",
    "capitalCity":"Harare",
    "longitude":31.0672,
    "latitude":-17.8312,
    "region":"Sub-Saharan Africa ",
    "incomeLevel":"Lower middle income",
    "gdp_per_capita":2156.0340040333
  }
]